[
  {
    "name": "SEDDCO Parking Lot",
    "address": "120Rada st Cor., Legazpi Street, Legazpi Village, Makati, Metro Manila",
    "slots": 20,
    "contact": "09178317286",
    "initial_rate": 40,
    "succeeding_rate": 50,
    "lat": 14.554799,
    "long": 121.017746
  },
  {
    "name": "Dela Rosa Car Park 1",
    "address": "Dela Rosa Street, Legazpi Village, Makati, Kalakhang Maynila",
    "slots": 30,
    "contact": "09152601996",
    "initial_rate": 50,
    "succeeding_rate": 50,
    "lat": 14.556650,
    "long": 121.019143
  },
  {
    "name": "Dela Rosa Car Park 2",
    "address": "Blk. 2 Dela Rosa Street, Legazpi Village, Makati, 1229 Kalakhang Maynila",
    "slots": 20,
    "contact": "09955676174",
    "initial_rate": 50,
    "succeeding_rate": 50,
    "lat": 14.556760,
    "long": 121.019457
  },
  {
    "name": "Valero Parking Lot",
    "address": "Valero, Makati, Kalakhang Maynila",
    "slots": 20,
    "contact": "0954594791",
    "initial_rate": 50,
    "succeeding_rate": 50,
    "lat": 14.558375,
    "long": 121.022123
  },
  {
    "name": "Valero Car Park",
    "address": "Valero, Maynila, Kalakhang Maynila" ,
    "slots": 20,
    "contact": "09152601996",
    "initial_rate": 50,
    "succeeding_rate": 50,
    "lat": 14.558375,
    "long": 121.022123
  },
  {
    "name": "Riki Carreon Parking Lot",
    "address": "8000 Makati Ave, Makati, 1200 Metro Manila" ,
    "slots": 20,
    "contact": "09955676174",
    "initial_rate": 50,
    "succeeding_rate": 50,
    "lat": 14.560314,
    "long": 121.029021
  },
  {
    "name": "Salcedo Park Parking",
    "address": "Toledo, Makati, Metro Manila" ,
    "slots": 20,
    "contact": "0954594791",
    "initial_rate": 50,
    "succeeding_rate": 50,
    "lat": 14.560163,
    "long": 121.023593
  },
  {
    "name": "Convergys One Parking Lot",
    "address": "Dela Rosa Access Rd 3, Legazpi Village, Makati, Metro Manila" ,
    "slots": 20,
    "contact": "09178317286",
    "initial_rate": 50,
    "succeeding_rate": 50,
    "lat": 14.558613,
    "long": 121.017129
  },
  {
    "name": "Best and Safe Parking",
    "address": "Cruzada St, Makati, Metro Manila" ,
    "slots": 20,
    "contact": "(02) 330 3187",
    "initial_rate": 50,
    "succeeding_rate": 50,
    "lat": 14.560212,
    "long": 121.028458
  },
  {
    "name": "Paseo Steel Car Park",
    "address": "Paseo de Roxas, Makati, Metro Manila" ,
    "slots": 20,
    "contact": "09955676174",
    "initial_rate": 50,
    "succeeding_rate": 50,
    "lat": 14.558130,
    "long": 121.025677
  },
  {
    "name": "Gabriela Silang Carpark",
    "address": "Ayala Ave, Makati, Metro Manila" ,
    "slots": 20,
    "contact": "09178317286",
    "initial_rate": 50,
    "succeeding_rate": 50,
    "lat": 14.555814,
    "long": 121.022899
  },
  {
    "name": "RCBC Plaza Parking Area",
    "address": "RCBC Plaza Tower 2, 6819 Ayala Ave, Makati, Metro Manila",
    "slots": 20,
    "contact": "09178317286",
    "initial_rate": 40,
    "succeeding_rate": 50,
    "lat": 14.561345,
    "long": 121.016971
  }, 
  {
    "name": "Paseo Center",
    "address": "8757 Paseo de Roxas, Makati, Metro Manila",
    "slots": 30,
    "contact": "09152601996",
    "initial_rate": 50,
    "succeeding_rate": 50,
    "lat": 14.557666,
    "long": 121.022941
  },
  {
    "name": "Jupiter Place",
    "address": "Jupter Place, 136 - 138 Jupiter, Makati, 1209 Metro Manila",
    "slots": 20,
    "contact": "09152601996",
    "initial_rate": 50,
    "succeeding_rate": 50,
    "lat": 14.561273,
    "long": 121.029813
  },
  {
    "name": "KMC Mag Group",
    "address": " Rufino Pacific Tower, 6784 Ayala Ave, Legazpi Village, Makati, 1229 Metro",
    "slots": 20,
    "contact": "09152601996",
    "initial_rate": 50,
    "succeeding_rate": 50,
    "lat": 14.558040,
    "long": 121.018219
  },
  {
    "name": "Park Square",
    "address": "East St, Makati, Metro Manila",
    "slots": 20,
    "contact": "09178317286",
    "initial_rate": 50,
    "succeeding_rate": 50,
    "lat": 14.549179,
    "long": 121.025602
  },
  {
    "name": "San Agustin College Covered Parking",
    "address": "Colegio San Agustin Makati, Lumbang, Makati, Metro Manila",
    "slots": 20,
    "contact": "09178317286",
    "initial_rate": 50,
    "succeeding_rate": 50,
    "lat": 14.542249,
    "long": 121.025932
  }
]
